City_ID,City,Lat,Lng,Max Temp,Humidity,Cloudiness,Wind Speed,Current Description,Country
0,grand gaube,-20.0064,57.6608,73.8,74,8,21.68,light rain,MU
1,bluff,-46.6,168.3333,55.22,73,18,13.06,few clouds,NZ
2,princeton,25.5384,-80.4089,81.01,88,1,5.75,clear sky,US
3,trairi,-3.2778,-39.2689,77.58,78,3,9.75,clear sky,BR
4,butaritari,3.0707,172.7902,83.19,74,91,7.9,overcast clouds,KI
5,atuona,-9.8,-139.0333,79.88,79,25,18.03,light rain,PF
6,hithadhoo,-0.6,73.0833,83.93,71,100,17.56,overcast clouds,MV
7,castro,-24.7911,-50.0119,58.26,93,81,3.51,broken clouds,BR
8,upernavik,72.7868,-56.1549,31.87,75,27,1.9,scattered clouds,GL
9,port lincoln,-34.7333,135.8667,60.1,63,60,10.51,broken clouds,AU
10,geraldton,-28.7667,114.6,59.13,77,0,14.23,clear sky,AU
11,port alfred,-33.5906,26.891,53.55,74,10,6.6,clear sky,ZA
12,nagua,19.3832,-69.8474,77.45,87,100,9.13,overcast clouds,DO
13,olinda,-8.0089,-34.8553,74.93,78,40,6.87,scattered clouds,BR
14,batemans bay,-35.7167,150.1833,62.91,50,45,3.85,scattered clouds,AU
15,longyearbyen,78.2186,15.6401,32.29,97,100,4.52,snow,SJ
16,tasiilaq,65.6145,-37.6368,44.76,76,100,6.42,overcast clouds,GL
17,nuuk,64.1835,-51.7216,34.88,93,18,3.0,few clouds,GL
18,honiara,-9.4333,159.95,86.09,67,95,7.87,overcast clouds,SB
19,east london,-33.0153,27.9116,55.26,75,65,6.73,broken clouds,ZA
20,marrakesh,31.6315,-8.0083,64.47,68,40,6.91,scattered clouds,MA
21,souillac,-20.5167,57.5167,73.38,78,14,15.68,few clouds,MU
22,nikolskoye,59.7035,30.7861,51.69,79,20,4.29,few clouds,RU
23,lappeenranta,61.0587,28.1887,55.45,76,0,3.44,clear sky,FI
24,norman wells,65.282,-126.8329,57.88,66,100,7.16,overcast clouds,CA
25,constantine,36.365,6.6147,64.26,77,29,6.35,scattered clouds,DZ
26,luderitz,-26.6481,15.1594,67.12,38,0,21.56,clear sky,NA
27,acari,-15.4311,-74.6158,66.33,75,64,1.36,broken clouds,PE
28,mehamn,71.0357,27.8492,50.07,75,20,16.71,few clouds,NO
29,alofi,-19.0595,-169.9187,77.52,76,99,7.23,light rain,NU
30,ushuaia,-54.8,-68.3,23.23,94,23,4.23,few clouds,AR
31,ust-nera,64.5667,143.2,62.67,28,22,4.34,few clouds,RU
32,rodino,52.5,80.25,64.51,60,51,5.77,broken clouds,RU
33,waingapu,-9.6567,120.2641,85.14,65,56,9.91,broken clouds,ID
34,flagstaff,35.1981,-111.6513,82.06,20,88,1.01,overcast clouds,US
35,nhulunbuy,-12.2333,136.7667,84.81,61,40,16.11,scattered clouds,AU
36,kerrville,30.0474,-99.1403,67.91,88,40,1.99,scattered clouds,US
37,puerto ayora,-0.7393,-90.3518,73.54,90,72,5.99,broken clouds,EC
38,bredasdorp,-34.5322,20.0403,49.28,84,66,2.44,broken clouds,ZA
39,pucallpa,-8.3791,-74.5539,72.79,97,100,1.59,overcast clouds,PE
40,verkhnevilyuysk,63.4453,120.3167,83.43,22,53,8.32,broken clouds,RU
41,kano,12.0001,8.5167,85.89,62,0,9.22,clear sky,NG
42,pevek,69.7008,170.3133,37.2,66,70,0.83,broken clouds,RU
43,rikitea,-23.1203,-134.9692,72.84,65,47,13.49,scattered clouds,PF
44,zhuhai,22.2769,113.5678,85.05,94,40,7.67,light rain,CN
45,torbay,47.6666,-52.7314,59.77,75,75,10.36,broken clouds,CA
46,jamestown,42.097,-79.2353,65.52,91,100,4.09,overcast clouds,US
47,kautokeino,69.0125,23.0412,60.3,52,68,4.88,broken clouds,NO
48,yantal,56.8471,105.2542,80.96,22,53,7.2,broken clouds,RU
49,vrangel,42.7297,133.0839,55.08,85,50,17.49,scattered clouds,RU
50,mataura,-46.1927,168.8643,53.94,73,70,3.8,broken clouds,NZ
51,hofn,64.2539,-15.2082,48.4,78,100,11.41,overcast clouds,IS
52,dawei,14.0833,98.2,85.73,73,95,2.82,overcast clouds,MM
53,lazaro cardenas,17.9583,-102.2,82.69,72,13,4.41,few clouds,MX
54,watertown,42.3709,-71.1828,71.51,85,100,3.0,overcast clouds,US
55,verkhniy baskunchak,48.2256,46.7217,56.86,93,17,11.54,few clouds,RU
56,ponta do sol,32.6667,-17.1,65.03,60,28,7.56,scattered clouds,PT
57,carnarvon,-24.8667,113.6333,67.66,45,0,13.06,clear sky,AU
58,te anau,-45.4167,167.7167,49.41,92,100,4.12,overcast clouds,NZ
59,dunedin,-45.8742,170.5036,56.8,58,70,5.99,broken clouds,NZ
60,bella vista,36.4295,-94.2316,70.72,75,1,1.23,clear sky,US
61,thompson,55.7435,-97.8558,55.56,58,90,3.44,overcast clouds,CA
62,srednekolymsk,67.45,153.6833,69.33,28,100,14.43,overcast clouds,RU
63,vila velha,-20.3297,-40.2925,71.94,93,0,1.99,clear sky,BR
64,vaini,-21.2,-175.2,72.75,75,38,8.57,scattered clouds,TO
65,punta arenas,-53.15,-70.9167,35.71,93,90,8.48,light rain,CL
66,iracoubo,5.4802,-53.2011,76.86,92,100,8.5,overcast clouds,GF
67,albany,42.6001,-73.9662,68.54,90,100,4.43,overcast clouds,US
68,altamira,-3.2033,-52.2064,71.65,98,30,2.91,scattered clouds,BR
69,port hardy,50.6996,-127.4199,54.14,73,100,9.53,overcast clouds,CA
70,leningradskiy,69.3833,178.4167,32.11,82,22,8.12,few clouds,RU
71,kodiak,57.79,-152.4072,51.31,71,90,13.8,overcast clouds,US
72,alice springs,-23.7,133.8833,58.55,63,75,18.19,broken clouds,AU
73,provideniya,64.3833,-173.3,37.51,70,75,11.18,broken clouds,RU
74,sampit,-2.5333,112.95,86.65,62,82,3.15,broken clouds,ID
75,cape town,-33.9258,18.4232,54.12,94,0,3.76,clear sky,ZA
76,hermanus,-34.4187,19.2345,53.91,72,97,7.2,overcast clouds,ZA
77,iqaluit,63.7506,-68.5145,33.53,86,90,8.99,snow,CA
78,poum,-20.2333,164.0167,75.56,60,38,10.54,scattered clouds,NC
79,dikson,73.5069,80.5464,31.08,95,99,14.2,overcast clouds,RU
80,yellowknife,62.456,-114.3525,66.72,52,75,9.22,broken clouds,CA
81,hilo,19.7297,-155.09,83.28,78,82,4.0,broken clouds,US
82,new norfolk,-42.7826,147.0587,49.66,52,35,3.0,scattered clouds,AU
83,hobart,-42.8794,147.3294,50.02,55,40,1.01,scattered clouds,AU
84,dukat,62.55,155.55,50.56,44,94,6.38,overcast clouds,RU
85,bethel,41.3712,-73.414,68.85,92,100,3.67,moderate rain,US
86,opuwo,-18.0607,13.84,53.33,29,0,8.63,clear sky,NA
87,prince rupert,54.3161,-130.3201,53.35,75,100,7.74,light rain,CA
88,kavaratti,10.5669,72.642,84.13,76,97,17.31,overcast clouds,IN
89,mar del plata,-38.0023,-57.5575,60.01,1,100,15.99,overcast clouds,AR
90,anbu,23.449,116.6809,87.01,68,100,5.06,overcast clouds,CN
91,tongliao,43.6125,122.2653,70.2,35,6,12.84,clear sky,CN
92,port elizabeth,-33.918,25.5701,44.89,87,0,1.14,clear sky,ZA
93,karasjok,69.4719,25.5112,62.71,56,25,1.16,scattered clouds,NO
94,pemberton,50.3164,-122.8027,74.64,48,65,6.33,broken clouds,CA
95,saskylakh,71.9167,114.0833,34.63,97,100,8.03,light rain,RU
96,barrow,71.2906,-156.7887,33.82,80,90,18.41,overcast clouds,US
97,udachnyy,66.4167,112.4,59.54,43,100,16.75,overcast clouds,RU
98,seydi,39.4816,62.9137,90.55,15,0,12.01,clear sky,TM
99,busselton,-33.65,115.3333,63.86,71,75,11.52,broken clouds,AU
100,ahipara,-35.1667,173.1667,61.97,56,21,4.16,few clouds,NZ
101,yashan,22.1975,109.9419,77.86,86,100,9.06,light rain,CN
102,victoria,22.2855,114.1577,85.32,93,99,2.21,light rain,HK
103,severo-kurilsk,50.6789,156.125,47.1,72,55,6.62,broken clouds,RU
104,virginia beach,36.8529,-75.978,72.01,95,100,1.01,moderate rain,US
105,saint-philippe,-21.3585,55.7679,71.15,81,44,13.6,light rain,RE
106,lata,40.1629,-8.3327,54.05,95,8,2.1,clear sky,PT
107,asosa,10.0667,34.5333,63.1,84,96,3.6,light rain,ET
108,tucumcari,35.1717,-103.725,76.95,34,15,8.95,few clouds,US
109,manado,1.487,124.8455,92.17,55,20,2.06,few clouds,ID
110,mahebourg,-20.4081,57.7,73.69,78,75,10.36,broken clouds,MU
111,vao,-22.6667,167.4833,71.06,79,98,16.98,overcast clouds,NC
112,chalinze,-6.6378,38.354,66.29,98,22,2.62,few clouds,TZ
113,tuktoyaktuk,69.4541,-133.0374,35.74,90,100,10.25,overcast clouds,CA
114,billings,45.7833,-108.5007,88.93,33,0,4.23,clear sky,US
115,portland,45.5234,-122.6762,81.61,50,69,3.0,broken clouds,US
116,kapaa,22.0752,-159.319,78.78,97,90,1.99,heavy intensity rain,US
117,san cristobal,7.7669,-72.225,66.43,98,68,2.98,broken clouds,VE
118,lebu,-37.6167,-73.65,56.05,96,100,3.47,overcast clouds,CL
119,fairbanks,64.8378,-147.7164,69.8,32,75,12.66,broken clouds,US
120,lampang,18.3333,99.5,91.83,55,98,3.51,overcast clouds,TH
121,kayes,14.0,-11.0,96.26,25,100,2.98,overcast clouds,ML
122,uspenka,48.3903,39.1619,55.4,96,100,2.42,overcast clouds,UA
123,montrose,38.4166,-108.2673,74.61,29,20,7.76,few clouds,US
124,zhmerynka,49.037,28.112,53.85,93,48,7.72,scattered clouds,UA
125,lavrentiya,65.5833,-171.0,33.82,74,100,3.76,overcast clouds,RU
126,khatanga,71.9667,102.5,34.61,81,100,7.16,overcast clouds,RU
127,ixtapa,20.7,-105.2,82.22,84,100,1.01,overcast clouds,MX
128,saint-hyacinthe,45.6168,-72.9491,66.06,97,100,3.78,overcast clouds,CA
129,puerto madryn,-42.7692,-65.0385,47.03,91,50,10.25,scattered clouds,AR
130,marang,5.2056,103.2059,84.06,73,100,4.25,overcast clouds,MY
131,saint-georges,12.0564,-61.7485,80.28,78,20,18.41,few clouds,GD
132,springbok,-29.6643,17.8865,51.39,36,8,16.78,clear sky,ZA
133,mount gambier,-37.8333,140.7667,54.54,46,53,9.01,broken clouds,AU
134,champerico,14.3,-91.9167,85.35,69,9,1.25,clear sky,GT
135,ponta delgada,37.7333,-25.6667,57.92,82,20,4.61,few clouds,PT
136,lantawan,10.6167,123.9833,85.05,70,92,2.91,overcast clouds,PH
137,juneau,58.3019,-134.4197,49.21,99,100,4.0,moderate rain,US
138,kolpashevo,58.3131,82.9089,51.62,57,97,4.29,overcast clouds,RU
139,rio grande,-32.035,-52.0986,50.95,87,5,10.11,light rain,BR
140,kashi,39.4547,75.9797,79.39,20,0,4.97,clear sky,CN
141,najran,17.4924,44.1277,74.35,18,98,2.37,overcast clouds,SA
142,robertsport,6.7533,-11.3686,81.86,81,100,5.55,overcast clouds,LR
143,tiksi,71.6872,128.8694,31.73,94,100,6.85,overcast clouds,RU
144,port macquarie,-31.4333,152.9167,70.9,44,0,12.06,clear sky,AU
145,ilinskiy,55.619,38.1182,54.18,71,0,6.71,clear sky,RU
146,port hedland,-20.3167,118.5667,68.05,49,90,17.27,overcast clouds,AU
147,marsh harbour,26.5412,-77.0636,78.35,80,85,16.13,overcast clouds,BS
148,chokurdakh,70.6333,147.9167,55.67,65,100,7.58,overcast clouds,RU
149,kamenka,51.3223,42.7678,51.4,88,100,11.79,light rain,RU
150,huadian,42.9633,126.7478,64.18,56,69,14.14,broken clouds,CN
151,marietta,33.9526,-84.5499,73.49,93,75,3.44,broken clouds,US
152,georgetown,5.4112,100.3354,87.73,76,20,2.82,few clouds,MY
153,den helder,52.9599,4.7593,61.99,94,54,8.99,mist,NL
154,shimoda,34.6667,138.95,72.1,97,100,24.99,moderate rain,JP
155,aswan,24.0934,32.907,80.96,20,58,14.94,broken clouds,EG
156,noumea,-22.2763,166.4572,77.0,99,22,8.3,few clouds,NC
157,pangnirtung,66.1451,-65.7125,26.17,89,90,5.77,overcast clouds,CA
158,tezu,27.9167,96.1667,83.89,63,94,2.35,overcast clouds,IN
159,itarema,-2.9248,-39.9167,77.04,78,5,11.03,clear sky,BR
160,doha,25.2867,51.5333,93.18,43,0,5.75,clear sky,QA
161,san patricio,28.017,-97.5169,72.84,96,100,11.1,moderate rain,US
162,asau,46.4333,26.4,52.72,91,25,5.17,scattered clouds,RO
163,tinyahuarco,-10.75,-76.3,39.43,90,73,3.36,broken clouds,PE
164,tuatapere,-46.1333,167.6833,55.45,73,68,8.3,broken clouds,NZ
165,hauterive,46.0901,3.4459,63.36,93,64,4.21,broken clouds,FR
166,ust-ishim,57.6935,71.1665,39.9,81,79,11.7,light rain,RU
167,bengkulu,-3.8004,102.2655,80.98,81,91,1.57,overcast clouds,ID
168,pui,45.5167,23.1,53.74,75,92,2.15,overcast clouds,RO
169,coihaique,-45.5752,-72.0662,40.08,98,100,6.15,light rain,CL
170,linqiong,30.4159,103.4609,76.78,60,100,2.82,overcast clouds,CN
171,srivardhan,18.0333,73.0167,82.96,77,53,2.82,broken clouds,IN
172,sosnovo-ozerskoye,52.5249,111.5418,66.11,43,0,4.68,clear sky,RU
173,taltal,-25.4,-70.4833,59.7,87,48,4.05,scattered clouds,CL
174,kodinsk,58.6881,99.1844,54.88,94,100,6.91,moderate rain,RU
175,sarh,9.1429,18.3923,81.0,53,93,6.35,overcast clouds,TD
176,yazman,29.1212,71.7446,86.18,47,30,5.44,scattered clouds,PK
177,opochka,56.7105,28.6617,54.81,73,100,3.76,overcast clouds,RU
178,farias brito,-6.9306,-39.5656,74.23,62,36,4.5,scattered clouds,BR
179,cornwall,45.0181,-74.7281,65.39,98,100,4.45,overcast clouds,CA
180,hare bay,48.8499,-54.0148,56.82,74,99,7.25,overcast clouds,CA
181,san gabriel casa blanca,18.15,-97.1333,75.15,76,81,3.67,broken clouds,MX
182,baijiantan,45.6333,85.1833,91.72,19,100,13.13,overcast clouds,CN
183,ribeira grande,38.5167,-28.7,62.6,70,98,12.15,overcast clouds,PT
184,urazovo,50.0836,38.0395,53.06,97,100,6.11,overcast clouds,RU
185,codrington,-38.2667,141.9667,54.95,48,30,14.63,scattered clouds,AU
186,mahur,25.1667,93.1167,72.57,96,88,3.13,overcast clouds,IN
187,antofagasta,-23.65,-70.4,59.76,85,0,2.62,clear sky,CL
188,adrar,20.5022,-10.0711,86.95,26,65,22.95,broken clouds,MR
189,brae,60.3964,-1.353,51.71,94,71,13.31,broken clouds,GB
190,ust-kan,50.9276,84.761,68.09,64,55,7.4,broken clouds,RU
191,khash,28.2211,61.2158,81.3,11,0,2.93,clear sky,IR
192,nantucket,41.2835,-70.0995,64.08,97,100,22.48,overcast clouds,US
193,makurdi,7.7411,8.5121,72.66,87,100,0.25,moderate rain,NG
194,kazerun,29.6195,51.6541,82.35,11,1,2.71,clear sky,IR
195,gamba,-2.65,10.0,75.18,92,8,4.79,clear sky,GA
196,ganzhou,28.8184,115.4327,76.19,66,98,2.51,overcast clouds,CN
197,tzucacab,20.0667,-89.05,82.11,63,55,5.91,broken clouds,MX
198,nsanje,-16.92,35.262,63.52,91,65,4.94,broken clouds,MW
199,oriximina,-1.7656,-55.8661,74.43,95,34,3.85,light rain,BR
200,alta gracia,-31.6529,-64.4283,67.37,64,52,5.88,broken clouds,AR
201,kahului,20.8947,-156.47,83.97,78,23,10.0,few clouds,US
202,hay river,60.8156,-115.7999,54.32,77,65,5.03,broken clouds,CA
203,liwale,-9.7667,37.9333,62.96,99,37,1.05,scattered clouds,TZ
204,senovo,46.0236,15.4769,61.03,94,22,1.21,few clouds,SI
205,tatawin,32.9297,10.4518,66.58,88,97,5.23,overcast clouds,TN
206,okhotsk,59.3833,143.3,46.78,73,13,7.92,few clouds,RU
207,narva-joesuu,59.4589,28.0408,51.87,79,74,4.36,broken clouds,EE
208,namibe,-15.1961,12.1522,70.75,72,0,5.14,clear sky,AO
209,lorengau,-2.0226,147.2712,85.01,68,60,2.39,broken clouds,PG
210,pithiviers,48.1667,2.25,64.94,97,100,4.38,overcast clouds,FR
211,lagoa,39.05,-27.9833,61.63,72,59,16.33,broken clouds,PT
212,smiltene,57.4244,25.9016,50.81,64,100,3.0,overcast clouds,LV
213,arona,28.0996,-16.681,62.33,66,40,1.99,scattered clouds,ES
214,rio gallegos,-51.6226,-69.2181,35.28,99,100,2.98,light rain,AR
215,peleduy,59.6289,112.7406,81.37,26,24,6.58,few clouds,RU
216,clyde river,70.4692,-68.5914,26.83,100,90,16.11,mist,CA
217,charters towers,-20.1,146.2667,73.92,38,58,15.3,broken clouds,AU
218,necochea,-38.5473,-58.7368,58.03,81,100,16.75,overcast clouds,AR
219,kuytun,54.3419,101.5036,71.67,43,50,9.15,scattered clouds,RU
220,bongandanga,1.5,21.05,69.66,90,43,2.44,scattered clouds,CD
221,inhambane,-23.865,35.3833,64.38,90,91,13.51,light rain,MZ
222,airai,-8.9266,125.4092,72.09,54,47,3.91,scattered clouds,TL
223,qaanaaq,77.484,-69.3632,23.47,84,20,5.93,few clouds,GL
224,broome,42.2506,-75.833,66.88,95,100,5.01,light rain,US
225,rosarito,32.3333,-117.0333,71.64,77,28,6.38,scattered clouds,MX
226,thayetmyo,19.3167,95.1833,90.61,52,46,5.48,scattered clouds,MM
227,narsaq,60.9167,-46.05,41.22,77,74,0.2,broken clouds,GL
228,capao da canoa,-29.7456,-50.0097,59.34,90,1,10.11,clear sky,BR
229,sandpoint,48.2766,-116.5533,88.12,30,1,1.01,clear sky,US
230,caracuaro,19.0106,-101.1264,81.55,58,97,4.07,heavy intensity rain,MX
231,nome,64.5011,-165.4064,37.17,67,95,15.93,overcast clouds,US
232,kushima,31.4583,131.2333,77.04,90,100,13.33,overcast clouds,JP
233,luzhou,28.8724,105.4405,74.61,59,99,4.52,overcast clouds,CN
234,atar,20.5169,-13.0499,88.29,29,99,16.89,overcast clouds,MR
235,avarua,-21.2078,-159.775,80.65,74,23,12.66,few clouds,CK
236,oktyabrskoye,43.0645,44.7417,55.54,87,92,1.23,overcast clouds,RU
237,tessalit,20.1986,1.0114,92.77,9,41,10.13,scattered clouds,ML
238,japura,-0.3167,102.35,81.81,84,100,3.69,light rain,ID
239,nanortalik,60.1432,-45.2371,35.19,86,51,11.16,broken clouds,GL
240,atasu,48.6814,71.6433,65.44,56,0,6.26,clear sky,KZ
241,tilichiki,60.4667,166.1,53.65,52,34,15.61,scattered clouds,RU
242,chuy,-33.6971,-53.4616,51.69,74,20,8.28,few clouds,UY
243,krasnohrad,49.3814,35.4402,52.92,97,100,9.69,overcast clouds,UA
244,bambous virieux,-20.3428,57.7575,74.37,75,19,16.51,few clouds,MU
245,arraial do cabo,-22.9661,-42.0278,73.65,82,0,0.74,clear sky,BR
246,wattegama,6.7989,81.4808,77.92,85,100,2.66,overcast clouds,LK
247,tias,28.9611,-13.645,64.15,82,0,14.97,clear sky,ES
248,bilibino,68.0546,166.4372,64.38,30,92,10.0,overcast clouds,RU
249,itupiranga,-5.1347,-49.3267,75.94,83,77,2.06,broken clouds,BR
250,sitka,57.0531,-135.33,49.89,81,90,5.75,light rain,US
251,saint george,37.1041,-113.5841,102.67,11,25,1.99,scattered clouds,US
252,steamboat springs,40.485,-106.8317,77.67,23,1,9.22,clear sky,US
253,kavieng,-2.5744,150.7967,84.38,70,89,5.03,overcast clouds,PG
254,morros,-9.4467,-46.3003,74.88,46,36,2.68,scattered clouds,BR
255,pisco,-13.7,-76.2167,62.02,84,15,3.06,few clouds,PE
256,sorong,-0.8833,131.25,80.06,86,100,8.39,overcast clouds,ID
257,griffith,41.5284,-87.4237,78.66,49,1,4.61,clear sky,US
258,byron bay,-28.65,153.6167,69.75,50,0,11.23,clear sky,AU
259,yar-sale,66.8333,70.8333,41.14,56,42,15.08,scattered clouds,RU
260,diego de almagro,-26.3667,-70.05,58.71,65,0,1.34,clear sky,CL
261,esperance,-33.8667,121.9,61.79,66,0,12.93,clear sky,AU
262,ginda,30.6945,78.4932,72.09,31,2,1.81,clear sky,IN
263,los llanos de aridane,28.6585,-17.9182,62.35,75,90,14.81,overcast clouds,ES
264,toma,12.7667,-2.8833,89.82,32,23,7.05,few clouds,BF
265,ribas do rio pardo,-20.4431,-53.7592,74.16,47,41,4.88,scattered clouds,BR
266,jaguaruna,-28.615,-49.0256,58.42,93,2,6.26,clear sky,BR
267,abha,18.2164,42.5053,66.52,16,63,7.34,broken clouds,SA
268,sao joao da barra,-21.6403,-41.0511,72.3,87,2,1.21,clear sky,BR
269,poronaysk,49.2167,143.1167,43.65,97,100,7.63,light rain,RU
270,half moon bay,37.4636,-122.4286,83.57,71,1,3.44,clear sky,US
271,cidreira,-30.1811,-50.2056,60.85,89,2,13.47,clear sky,BR
272,pochutla,15.7432,-96.4661,79.83,79,51,2.06,broken clouds,MX
273,ninotsminda,41.2646,43.5916,34.25,87,9,1.59,clear sky,GE
274,college,64.8569,-147.8028,69.78,34,75,12.66,broken clouds,US
275,sorland,67.667,12.6934,50.32,79,0,8.61,clear sky,NO
276,villa rica,33.7321,-84.9191,72.75,93,99,4.21,light rain,US
277,svetlyy,54.675,20.1347,51.85,81,72,6.49,broken clouds,RU
278,kendari,-3.945,122.4989,75.99,95,100,3.36,overcast clouds,ID
279,faya,18.3851,42.4509,66.87,14,53,6.08,broken clouds,SA
280,sur,22.5667,59.5289,91.36,41,15,9.48,few clouds,OM
281,mednogorsk,51.4128,57.595,56.62,87,39,22.12,scattered clouds,RU
282,bathsheba,13.2167,-59.5167,80.01,75,100,18.88,overcast clouds,BB
283,aklavik,68.2191,-135.0107,44.24,82,100,6.71,light rain,CA
284,baruun-urt,46.6806,113.2792,61.25,41,35,16.87,scattered clouds,MN
285,pa daet,19.5049,99.9924,79.52,51,85,2.95,overcast clouds,TH
286,kununurra,-15.7667,128.7333,84.18,34,59,17.27,broken clouds,AU
287,macau,22.2006,113.5461,85.06,94,40,8.05,light rain,MO
288,ketchikan,55.3422,-131.6461,48.18,93,100,6.31,moderate rain,US
289,zhigansk,66.7697,123.3711,66.47,52,100,6.02,overcast clouds,RU
290,bosobolo,4.1833,19.9,69.6,97,56,2.51,light rain,CD
291,faanui,-16.4833,-151.75,81.27,73,59,10.25,broken clouds,PF
292,general salgado,-20.6483,-50.3606,67.93,46,16,4.97,few clouds,BR
293,cabedelo,-6.9811,-34.8339,76.87,79,22,9.31,few clouds,BR
294,tynda,55.1667,124.7167,69.17,35,23,12.53,few clouds,RU
295,gap,44.6667,6.0,43.07,87,55,3.13,broken clouds,FR
296,mecca,21.4267,39.8261,82.04,66,2,4.25,clear sky,SA
297,egvekinot,66.3167,-179.1667,33.28,58,67,5.08,broken clouds,RU
298,yulara,-25.2406,130.9889,60.48,45,100,13.33,overcast clouds,AU
299,plettenberg bay,-34.0527,23.3716,54.14,60,82,4.45,broken clouds,ZA
300,nicoya,10.1483,-85.452,77.85,86,40,3.15,scattered clouds,CR
301,mirabad,30.4362,61.8383,90.36,15,0,7.11,clear sky,AF
302,tura,25.5198,90.2201,81.3,81,2,5.53,clear sky,IN
303,kungurtug,50.5994,97.5228,68.36,37,92,2.28,overcast clouds,RU
304,bani,18.2833,-70.3333,77.86,80,100,10.56,overcast clouds,DO
305,bandarbeyla,9.4942,50.8122,78.98,80,100,18.21,overcast clouds,SO
306,katsuura,35.1333,140.3,72.19,92,100,27.98,moderate rain,JP
307,edremit,39.5961,27.0244,57.18,84,14,6.08,few clouds,TR
308,englewood,39.6478,-104.9878,79.41,35,10,1.01,clear sky,US
309,anadyr,64.75,177.4833,39.7,64,20,17.0,few clouds,RU
310,constitucion,-35.3333,-72.4167,56.64,91,100,7.07,overcast clouds,CL
311,gurgentepe,40.7883,37.6017,42.19,80,7,5.7,clear sky,TR
312,camana,-16.6228,-72.7111,63.34,84,58,1.19,broken clouds,PE
313,guerrero negro,27.9769,-114.0611,65.28,74,0,13.71,clear sky,MX
314,the valley,18.217,-63.0578,81.1,75,78,19.91,broken clouds,AI
315,davidson,36.1501,-86.7833,71.02,82,1,0.0,clear sky,US
316,batagay,67.6333,134.6333,77.11,31,100,11.36,overcast clouds,RU
317,tigre,-34.426,-58.5796,63.05,74,36,1.99,scattered clouds,AR
318,kurumkan,54.3,110.3,71.87,42,1,3.91,clear sky,RU
319,hassleholm,56.1591,13.7664,53.26,81,90,5.91,overcast clouds,SE
320,hualmay,-11.0964,-77.6139,63.91,84,45,6.4,scattered clouds,PE
321,ratnagiri,16.9833,73.3,80.96,84,98,9.19,light rain,IN
322,mandalgovi,45.7625,106.2708,58.35,43,0,3.69,clear sky,MN
323,iguguno,-4.5697,34.6275,61.11,79,99,7.0,overcast clouds,TZ
324,abis,9.7173,122.9438,86.16,62,100,2.55,overcast clouds,PH
325,biak,-0.9131,122.8766,81.32,76,100,7.25,overcast clouds,ID
326,gorontalo,0.5412,123.0595,87.46,63,68,5.46,broken clouds,ID
327,uporovo,56.3109,66.2693,45.25,55,3,15.79,clear sky,RU
328,benghazi,32.1167,20.0667,70.65,56,6,14.58,clear sky,LY
329,bafq,31.6128,55.4107,88.97,10,0,5.61,clear sky,IR
330,plaster rock,46.9065,-67.39,60.08,98,100,9.1,moderate rain,CA
331,soe,-9.8607,124.284,79.61,53,43,7.54,scattered clouds,ID
332,husavik,66.0449,-17.3389,42.71,61,90,6.44,overcast clouds,IS
333,beyneu,45.3167,55.2,75.06,50,0,14.61,clear sky,KZ
334,khed brahma,24.0333,73.05,85.44,66,0,10.54,clear sky,IN
335,chifeng,42.2683,118.9636,65.77,37,67,15.41,broken clouds,CN
336,shingu,33.7333,135.9833,74.91,96,100,16.53,heavy intensity rain,JP
337,sidi ali,36.0998,0.4206,65.8,90,92,4.29,overcast clouds,DZ
338,ola,59.5833,151.2833,41.86,87,100,5.77,overcast clouds,RU
339,petrovsk,52.3064,45.3917,53.2,70,100,19.01,overcast clouds,RU
340,dingle,10.9995,122.6711,86.92,70,75,6.04,broken clouds,PH
341,pout,14.7739,-17.0603,75.96,73,97,10.85,overcast clouds,SN
342,lac du bonnet,50.2536,-96.0612,70.75,74,32,1.01,scattered clouds,CA
343,mandan,46.8267,-100.8896,88.81,35,1,5.75,clear sky,US
344,richards bay,-28.783,32.0377,60.8,70,97,17.27,light rain,ZA
345,hengshui,37.7322,115.7011,89.64,12,0,16.08,clear sky,CN
346,ostrovnoy,68.0531,39.5131,61.36,58,97,14.85,overcast clouds,RU
347,qui nhon,13.7667,109.2333,91.33,57,100,6.76,overcast clouds,VN
348,vestmanna,62.1564,-7.1664,47.32,100,75,9.64,broken clouds,FO
349,odessa,46.4775,30.7326,51.73,93,0,6.71,clear sky,UA
350,fort nelson,58.8053,-122.7002,71.22,23,95,7.38,overcast clouds,CA
351,fukue,32.6881,128.8419,67.75,78,100,17.18,overcast clouds,JP
352,gat,31.61,34.7642,66.88,76,18,0.43,few clouds,IL
353,yerbogachen,61.2767,108.0108,69.33,52,100,3.91,overcast clouds,RU
354,hobyo,5.3505,48.5268,78.03,88,100,20.67,overcast clouds,SO
355,boguchany,58.3814,97.4531,52.27,94,100,3.56,light rain,RU
356,sokode,8.9833,1.1333,72.43,90,50,4.07,scattered clouds,TG
357,luwuk,-0.9516,122.7875,84.11,74,100,6.82,overcast clouds,ID
358,saint-augustin,51.226,-58.6502,51.26,81,100,14.47,overcast clouds,CA
359,uyuni,-20.4597,-66.825,40.26,22,7,1.05,clear sky,BO
360,kruisfontein,-34.0033,24.7314,47.95,71,67,5.95,broken clouds,ZA
361,waddan,29.1614,16.139,78.06,39,72,5.84,broken clouds,LY
362,kalabo,-14.97,22.6814,49.68,37,3,6.29,clear sky,ZM
363,chapleau,47.8405,-83.4034,56.32,88,32,4.94,light rain,CA
364,petrovac,44.3769,21.4192,55.58,86,34,3.91,scattered clouds,RS
365,smestad,59.9333,10.6667,59.67,1,35,3.33,scattered clouds,NO
366,saint anthony,45.0205,-93.218,82.72,53,75,8.72,broken clouds,US
367,lasa,46.6166,10.7002,56.14,94,31,1.97,scattered clouds,IT
368,mount isa,-20.7333,139.5,65.97,52,10,17.27,clear sky,AU
369,sibu,2.3,111.8167,89.56,65,28,2.39,scattered clouds,MY
370,tocopilla,-22.092,-70.1979,63.77,70,38,3.67,scattered clouds,CL
371,mareeba,-17.0,145.4333,81.32,62,35,2.64,scattered clouds,AU
372,nabire,-3.3667,135.4833,83.71,74,78,2.57,broken clouds,ID
373,creel,27.75,-107.6333,51.93,76,100,2.28,overcast clouds,MX
374,kattivakkam,13.2167,80.3167,85.06,87,100,7.25,overcast clouds,IN
375,ban dung,17.699,103.2596,90.88,72,100,3.38,overcast clouds,TH
376,aksu,41.1231,80.2644,79.65,25,40,2.66,scattered clouds,CN
377,hovd,48.0056,91.6419,73.56,30,13,0.4,few clouds,MN
378,hambantota,6.1241,81.1185,79.14,94,90,15.61,overcast clouds,LK
379,huai thalaeng,14.997,102.6475,93.87,53,100,9.71,overcast clouds,TH
380,kalmunai,7.4167,81.8167,81.07,80,100,3.47,overcast clouds,LK
381,praia da vitoria,38.7333,-27.0667,60.76,80,4,7.05,clear sky,PT
382,warrnambool,-38.3833,142.4833,54.81,51,10,16.49,clear sky,AU
383,baykit,61.67,96.37,48.4,53,100,4.56,overcast clouds,RU
384,bahia honda,22.9036,-83.1592,78.19,80,6,5.14,clear sky,CU
385,khor,47.8861,134.9464,53.56,96,100,2.26,moderate rain,RU
386,boyolangu,-8.1181,111.8935,82.62,70,86,2.73,overcast clouds,ID
387,saldanha,-33.0117,17.9442,57.16,59,83,6.26,broken clouds,ZA
388,querfurt,51.3833,11.6,67.62,80,100,2.19,overcast clouds,DE
389,morondava,-20.2833,44.2833,67.86,84,7,5.35,clear sky,MG
390,beringovskiy,63.05,179.3167,35.44,86,80,5.59,broken clouds,RU
391,halifax,44.6453,-63.5724,59.41,88,100,1.01,overcast clouds,CA
392,christchurch,-43.5333,172.6333,61.48,74,8,1.99,clear sky,NZ
393,agadez,19.75,10.25,88.99,10,4,6.22,clear sky,NE
394,hami,42.8,93.45,89.35,9,41,2.24,scattered clouds,CN
395,lapua,62.9693,23.0088,51.48,80,71,2.26,broken clouds,FI
396,cap malheureux,-19.9842,57.6142,76.1,74,9,21.83,clear sky,MU
397,harper,4.375,-7.7169,79.34,87,100,6.04,overcast clouds,LR
398,shelburne,44.0787,-80.2041,62.13,91,2,5.82,clear sky,CA
399,ancud,-41.8697,-73.8203,49.23,87,100,12.84,light rain,CL
400,sunyani,7.3399,-2.3268,73.31,98,30,3.71,scattered clouds,GH
401,ilulissat,69.2167,-51.1,35.62,80,75,6.91,broken clouds,GL
402,santa rosa,14.3122,121.1114,91.09,68,100,6.38,overcast clouds,PH
403,rupert,42.6191,-113.6772,93.09,30,4,3.83,clear sky,US
404,bagepalli,13.7847,77.7931,73.74,74,100,2.19,overcast clouds,IN
405,beidao,34.5686,105.8933,72.09,29,44,2.51,scattered clouds,CN
406,asfi,32.2994,-9.2372,62.82,75,94,12.26,overcast clouds,MA
407,kisangani,0.5167,25.2,69.37,97,100,0.85,overcast clouds,CD
408,san isidro,-12.1167,-77.05,64.02,89,25,6.17,scattered clouds,PE
409,abashiri,44.0213,144.2697,61.05,79,100,26.98,light rain,JP
410,liverpool,53.4106,-2.9779,54.14,75,30,1.01,scattered clouds,GB
411,yatou,37.15,122.3833,72.95,38,0,17.65,clear sky,CN
412,honningsvag,70.9821,25.9704,47.37,79,0,17.38,clear sky,NO
413,vermilion,40.1667,-87.7506,75.54,50,1,6.8,clear sky,US
414,katobu,-4.9408,122.5276,80.2,84,100,8.23,moderate rain,ID
415,nemuro,43.3236,145.575,52.16,94,100,26.84,moderate rain,JP
416,khandyga,62.6667,135.6,73.94,23,98,4.16,overcast clouds,RU
417,talnakh,69.4865,88.3972,33.39,100,100,4.76,light snow,RU
418,cefalu,38.0386,14.0229,69.55,77,4,3.0,clear sky,IT
419,taoudenni,22.6783,-3.9836,92.48,25,100,24.45,overcast clouds,ML
420,montego bay,18.4712,-77.9188,77.79,82,5,7.9,clear sky,JM
421,namatanai,-3.6667,152.4333,84.72,69,99,3.04,overcast clouds,PG
422,klaksvik,62.2266,-6.589,49.12,96,22,17.02,few clouds,FO
423,kouroussa,10.65,-9.8833,76.57,80,7,5.01,clear sky,GN
424,areosa,41.7178,-8.8571,55.24,80,59,12.82,broken clouds,PT
425,smoljan,43.0924,19.2286,38.98,93,0,0.6,clear sky,ME
426,taga,46.95,24.05,52.3,87,25,1.63,scattered clouds,RO
427,ayr,55.4627,-4.6339,52.5,87,40,12.66,scattered clouds,GB
428,vila,42.0304,-8.1588,42.93,85,43,4.12,scattered clouds,PT
429,axim,4.8699,-2.2405,79.34,87,62,6.76,broken clouds,GH
430,ayagoz,47.9714,80.4392,74.77,40,84,19.04,broken clouds,KZ
431,vila franca do campo,37.7167,-25.4333,57.61,82,28,4.14,scattered clouds,PT
432,jaciara,-15.9653,-54.9683,70.84,56,0,1.7,clear sky,BR
433,moratuwa,6.773,79.8816,80.62,89,100,10.29,overcast clouds,LK
434,petropavlovsk-kamchatskiy,53.0452,158.6483,70.39,33,50,7.52,scattered clouds,RU
435,ambilobe,-13.2,49.05,67.37,87,24,2.89,few clouds,MG
436,pasni,25.2631,63.471,84.58,75,84,9.17,broken clouds,PK
437,zapadnaya dvina,56.259,32.0745,48.87,86,56,4.61,broken clouds,RU
438,nizhnyaya omka,55.4338,74.9426,50.34,80,100,12.5,light rain,RU
439,enna,37.5588,14.2892,62.06,65,2,5.99,clear sky,IT
440,korla,41.7597,86.1469,86.45,16,100,1.34,overcast clouds,CN
441,turan,16.0678,108.2208,96.78,46,20,4.61,few clouds,VN
442,sept-iles,50.2001,-66.3821,52.05,85,100,3.0,overcast clouds,CA
443,nueva guinea,11.6876,-84.4562,74.59,91,24,6.38,few clouds,NI
444,coolum beach,-26.5333,153.1,70.11,63,22,10.13,few clouds,AU
445,tommot,58.9564,126.2925,73.36,39,17,1.83,few clouds,RU
446,salalah,17.0151,54.0924,77.27,80,100,2.1,overcast clouds,OM
447,kysyl-syr,63.8986,122.7617,82.35,26,59,8.41,broken clouds,RU
448,dutse,11.7594,9.3392,82.63,49,26,12.97,scattered clouds,NG
449,ngaoundere,7.3167,13.5833,63.07,87,42,3.38,scattered clouds,CM
450,lebanon,36.2081,-86.2911,70.79,86,1,0.0,clear sky,US
451,nizhniy ingash,56.2,96.53,62.47,88,99,3.18,light rain,RU
452,cherskiy,68.75,161.3,67.95,25,98,2.82,overcast clouds,RU
453,diffa,13.3154,12.6113,89.82,21,94,5.37,overcast clouds,NE
454,chenghai,23.4632,116.768,86.59,68,100,5.26,overcast clouds,CN
455,sovetskiy,61.3614,63.5842,42.39,45,0,5.46,clear sky,RU
456,turayf,31.6725,38.6637,68.7,30,0,10.02,clear sky,SA
457,north platte,41.1239,-100.7654,79.32,42,1,8.01,clear sky,US
458,kalemie,-5.9475,29.1947,70.65,75,36,1.25,light rain,CD
459,colares,38.7992,-9.4469,58.44,71,82,15.99,broken clouds,PT
460,samarai,-10.6167,150.6667,80.02,85,99,10.2,moderate rain,PG
461,vostok,46.4856,135.8833,47.89,99,100,1.9,light rain,RU
462,yagodnoye,62.55,149.6667,54.93,42,85,4.27,overcast clouds,RU
463,artesia,33.8658,-118.0831,84.63,75,75,8.01,broken clouds,US
464,kalengwa,-13.4659,25.0027,50.77,57,6,5.17,clear sky,ZM
465,cayenne,4.9333,-52.3333,77.09,89,75,8.34,moderate rain,GF
466,itum-kale,42.7356,45.5758,54.3,94,31,1.34,scattered clouds,RU
467,kuna,43.4918,-116.4201,97.88,20,1,16.11,light rain,US
468,ico,-6.4011,-38.8622,80.53,51,100,5.46,overcast clouds,BR
469,komatipoort,-25.4332,31.9548,61.05,79,100,15.55,light rain,ZA
470,calvinia,-31.4707,19.776,45.66,51,97,7.31,overcast clouds,ZA
471,paamiut,61.994,-49.6678,35.76,75,5,7.65,clear sky,GL
472,vilhena,-12.7406,-60.1458,69.19,58,2,3.62,clear sky,BR
473,okha,53.5739,142.9478,40.35,97,100,12.86,light rain,RU
474,camacha,33.0833,-16.3333,61.56,63,20,8.05,few clouds,PT
475,wodonga,-36.1167,146.8833,56.97,97,90,8.05,overcast clouds,AU
476,tambopata,-12.7333,-69.1833,70.12,98,100,2.06,overcast clouds,PE
477,oudtshoorn,-33.5907,22.2014,48.56,63,85,4.14,overcast clouds,ZA
478,coquimbo,-29.9533,-71.3436,58.33,90,75,5.57,broken clouds,CL
479,concepcion,-36.827,-73.0498,56.62,96,100,2.13,overcast clouds,CL
480,verkhnyaya inta,65.9811,60.3094,45.05,65,27,14.81,scattered clouds,RU
481,wilmington,34.2257,-77.9447,75.85,90,100,1.99,overcast clouds,US
482,pilibhit,28.6333,79.8,87.53,42,38,4.25,scattered clouds,IN
483,parana,-31.732,-60.5238,65.55,65,8,8.97,clear sky,AR
484,magog,45.2668,-72.1491,65.23,99,100,2.91,overcast clouds,CA
485,bouar,5.934,15.596,63.84,97,86,0.76,light rain,CF
486,nalut,30.3333,10.85,78.85,40,100,13.85,overcast clouds,LY
487,stepnogorsk,52.3544,71.8869,56.34,76,76,12.12,broken clouds,KZ
488,ossora,59.2353,163.0719,50.67,66,58,5.28,broken clouds,RU
489,roald,62.5833,6.1333,57.99,67,75,8.05,broken clouds,NO
490,kaitangata,-46.2817,169.8464,54.86,67,44,2.73,scattered clouds,NZ
491,abu samrah,35.3029,37.1841,61.23,76,0,6.78,clear sky,SY
492,quesnel,52.9999,-122.5029,76.06,41,83,2.46,broken clouds,CA
493,yumen,40.2833,97.2,81.23,7,0,14.83,clear sky,CN
494,kharan,28.5833,65.4167,89.31,38,0,2.21,clear sky,PK
495,srandakan,-7.9386,110.2506,68.74,70,15,3.24,few clouds,ID
496,jinchang,38.4953,102.1739,73.92,6,0,6.73,clear sky,CN
497,labuhan,-6.8844,112.2051,84.96,71,79,10.63,broken clouds,ID
498,touros,-5.1989,-35.4608,74.3,81,1,10.0,clear sky,BR
499,moussoro,13.6408,16.4901,90.41,31,70,5.61,broken clouds,TD
500,rawson,-43.3002,-65.1023,45.77,89,23,10.31,few clouds,AR
501,ironton,38.5368,-82.6829,68.29,92,93,4.38,overcast clouds,US
502,kaihua,23.3687,104.28,61.16,78,100,7.9,overcast clouds,CN
503,vaasa,63.096,21.6158,50.02,87,0,1.14,clear sky,FI
504,zhangjiakou,40.81,114.8794,63.91,40,22,19.95,few clouds,CN
505,sumkino,58.1108,68.3244,41.67,55,5,13.6,clear sky,RU
506,sahuaripa,29.05,-109.2333,92.59,12,52,8.52,broken clouds,MX
507,fort-shevchenko,44.5086,50.263,71.15,62,10,15.05,clear sky,KZ
508,fortuna,40.5982,-124.1573,77.18,69,90,1.01,overcast clouds,US
509,dawlatabad,36.4141,64.9053,89.56,14,0,2.89,clear sky,AF
510,meulaboh,4.1363,96.1285,79.99,86,94,2.26,light rain,ID
511,nola,40.922,14.5329,69.93,78,4,0.58,clear sky,IT
512,palmares do sul,-30.2578,-50.5097,58.28,92,0,9.82,clear sky,BR
513,banda aceh,5.5577,95.3222,83.1,78,97,10.2,overcast clouds,ID
514,san quintin,30.4833,-115.95,65.01,75,1,7.61,clear sky,MX
515,nemetker,46.7164,18.7631,54.57,73,0,0.43,clear sky,HU
516,berlevag,70.8578,29.0864,50.49,70,11,11.86,few clouds,NO
517,chunskiy,56.0815,99.6342,72.64,45,76,5.77,broken clouds,RU
518,muros,42.7762,-9.0603,53.83,92,66,5.77,broken clouds,ES
519,gbadolite,4.2833,21.0167,68.99,96,100,2.73,moderate rain,CD
520,saint-pierre,-21.3393,55.4781,71.24,65,40,8.05,scattered clouds,RE
521,aleksandrov gay,50.147,48.5704,55.78,93,98,16.28,overcast clouds,RU
522,moron,-34.6534,-58.6198,62.78,77,75,4.0,broken clouds,AR
523,karymskoye,51.6167,114.35,69.33,39,8,8.32,clear sky,RU
524,goderich,43.7501,-81.7165,65.03,78,1,8.86,clear sky,CA
525,puebloviejo,10.9938,-74.2844,81.59,77,99,7.16,overcast clouds,CO
526,mookane,-23.688,26.6595,48.24,69,6,4.5,clear sky,BW
527,moanda,-1.5575,13.2178,70.72,88,10,2.44,clear sky,GA
528,nogent-le-rotrou,48.3333,1.0,60.8,99,100,7.2,light rain,FR
529,kieta,-6.2167,155.6333,83.25,76,100,3.87,overcast clouds,PG
530,comodoro rivadavia,-45.8667,-67.5,46.15,70,5,11.41,clear sky,AR
531,alugan,12.2188,125.4808,84.88,66,98,3.29,overcast clouds,PH
532,lake havasu city,34.4839,-114.3224,106.25,9,1,7.0,clear sky,US
533,jiwani,25.05,61.7417,84.56,79,96,11.9,overcast clouds,PK
534,leshukonskoye,64.8989,45.7622,58.48,67,53,4.99,broken clouds,RU
535,gombong,-7.6072,109.5142,84.83,74,73,1.3,broken clouds,ID
536,santa cruz,-17.8,-63.1667,75.6,66,90,5.75,overcast clouds,BO
537,togitsu,32.8333,129.85,67.98,93,100,7.99,light rain,JP
538,batagay-alyta,67.8006,130.4114,74.86,24,100,18.7,overcast clouds,RU
539,ranong,9.9658,98.6348,84.6,76,32,3.94,scattered clouds,TH
540,tautira,-17.7333,-149.15,80.62,82,32,16.15,light rain,PF
541,pimentel,-6.8367,-79.9342,66.0,83,11,1.01,few clouds,PE
542,ahome,25.9167,-109.1833,85.14,57,0,3.0,clear sky,MX
543,vizinga,61.0749,50.1031,53.17,66,8,2.8,clear sky,RU
544,akhtubinsk,48.2795,46.1722,56.28,95,27,10.27,scattered clouds,RU
545,cabo san lucas,22.8909,-109.9124,89.51,54,0,11.05,clear sky,MX
546,ukiah,39.1502,-123.2078,96.12,40,8,7.67,clear sky,US
547,hasaki,35.7333,140.8333,71.19,87,100,29.57,moderate rain,JP
548,saint-joseph,-21.3667,55.6167,70.16,75,20,13.47,light rain,RE
549,harnosand,62.6323,17.9379,50.0,75,91,3.24,overcast clouds,SE
550,sidhauli,27.2833,80.8333,78.69,32,2,4.18,clear sky,IN
551,nahariyya,33.0059,35.0941,71.51,86,0,1.72,clear sky,IL
552,xining,36.6167,101.7667,60.75,21,0,2.59,clear sky,CN
553,havre,49.5833,0.3333,55.49,93,90,2.73,overcast clouds,FR
554,puerto leguizamo,-0.1934,-74.7819,72.61,98,68,1.48,broken clouds,CO
555,ahvaz,31.3203,48.6693,88.59,12,0,12.28,clear sky,IR
556,canutama,-6.5339,-64.3831,75.43,67,43,2.46,scattered clouds,BR
557,clarence town,-32.5833,151.7833,69.85,54,1,11.81,clear sky,AU
558,ginir,7.1333,40.7,55.18,83,84,4.12,broken clouds,ET
559,teya,60.3778,92.6267,48.2,56,100,5.7,overcast clouds,RU
560,yamada,39.4667,141.95,62.78,97,100,26.28,light rain,JP
561,chalus,36.655,51.4204,70.48,87,75,6.46,broken clouds,IR
562,sola,-13.8833,167.55,79.52,76,83,16.4,broken clouds,VU
563,igrim,63.1906,64.4162,40.33,57,70,7.36,broken clouds,RU
564,golyshmanovo,56.3979,68.3728,42.91,61,27,17.0,scattered clouds,RU
565,camaguey,21.3808,-77.9169,73.8,90,15,8.19,few clouds,CU
566,ulladulla,-35.35,150.4667,64.09,54,17,3.31,few clouds,AU
567,kholodnyy,62.7167,147.95,56.64,36,68,4.52,broken clouds,RU
568,marquette,46.5333,-87.6335,63.84,80,96,3.53,overcast clouds,US
569,shiloh,38.5614,-89.8973,74.08,70,1,0.0,clear sky,US
570,cozumel,20.5083,-86.9458,80.11,86,40,1.99,scattered clouds,MX
571,willowmore,-33.2926,23.4895,42.94,73,100,3.24,overcast clouds,ZA
572,luganville,-15.5333,167.1667,79.47,74,89,9.22,overcast clouds,VU
573,nelson bay,-32.7167,152.15,66.78,67,1,3.0,clear sky,AU
574,damascus,33.5102,36.2913,57.34,42,0,1.48,clear sky,SY
575,oranjemund,-28.55,16.4333,63.77,37,12,11.43,few clouds,NA
576,kanniyakumari,8.0833,77.5667,81.95,78,100,15.97,overcast clouds,IN
577,nongstoin,25.5167,91.2667,71.78,79,10,4.74,light rain,IN
578,melipilla,-33.7,-71.2167,68.41,63,100,1.5,overcast clouds,CL
579,eureka,40.8021,-124.1637,62.2,81,79,5.99,broken clouds,US
580,ponnampet,12.15,75.9333,71.01,93,100,2.39,light rain,IN
581,kot samaba,28.5522,70.4684,90.66,43,1,3.96,clear sky,PK
582,pedasi,7.5333,-80.0333,80.71,79,100,3.11,overcast clouds,PA
583,bambanglipuro,-7.95,110.2833,68.61,70,14,3.15,few clouds,ID
584,havoysund,70.9963,24.6622,50.88,86,6,17.0,clear sky,NO
585,isangel,-19.55,169.2667,77.02,61,68,12.88,broken clouds,VU
586,hamilton,39.1834,-84.5333,65.25,96,75,1.01,broken clouds,US
587,deer lake,49.1667,-57.4316,56.57,66,100,4.52,overcast clouds,CA
588,methoni,36.8197,21.7049,67.21,69,0,9.82,clear sky,GR
589,terenos,-20.4422,-54.8603,78.03,41,95,6.44,overcast clouds,BR
590,namtsy,62.7161,129.6658,77.11,30,15,7.05,few clouds,RU
591,san policarpo,12.1791,125.5072,84.6,68,98,3.42,overcast clouds,PH
592,prokudskoye,55.0089,82.4574,54.3,76,0,5.79,clear sky,RU
593,ashford,51.1459,0.8728,61.0,88,24,5.55,few clouds,GB
594,nyurba,63.2842,118.3319,81.39,27,68,7.9,broken clouds,RU
595,peniche,39.3558,-9.3811,58.73,80,79,20.92,broken clouds,PT
596,ongandjera,-17.8833,15.0667,53.49,22,0,10.54,clear sky,NA
597,dehloran,32.6941,47.2679,89.49,10,0,9.17,clear sky,IR
598,uong bi,21.0333,106.7833,80.58,72,100,5.86,moderate rain,VN
599,padang,-0.9492,100.3543,83.03,74,100,1.05,moderate rain,ID
600,ankang,32.68,109.0172,72.84,49,3,2.82,clear sky,CN
601,mitu,1.1983,-70.1733,72.18,98,66,0.92,broken clouds,CO
602,nagapattinam,10.7667,79.8333,84.74,74,100,2.93,overcast clouds,IN
603,nanhai,30.1282,111.7784,76.77,53,75,3.42,broken clouds,CN
604,avera,33.194,-82.5271,78.85,80,63,7.27,broken clouds,US
605,juegang,32.3174,121.1855,75.38,48,49,7.25,scattered clouds,CN
606,iberia,29.9502,-91.7507,75.18,94,1,3.96,clear sky,US
607,maues,-3.3836,-57.7186,75.04,92,86,3.44,overcast clouds,BR
608,manzhouli,49.6,117.4333,66.72,41,74,19.98,broken clouds,CN
609,dapaong,10.8639,0.205,82.56,52,2,5.82,clear sky,TG
610,chacabuco,-34.6417,-60.4739,57.79,79,26,8.75,scattered clouds,AR
611,saint-francois,46.4154,3.9054,62.19,97,0,1.14,clear sky,FR
612,porto walter,-8.2686,-72.7439,74.23,91,100,1.77,overcast clouds,BR
613,lumeje,-11.55,20.7833,54.34,55,57,6.62,broken clouds,AO
614,nichinan,31.6,131.3667,76.68,89,100,14.99,light rain,JP
615,sal rei,16.1833,-22.9167,72.16,85,20,19.71,few clouds,CV
616,beloha,-25.1667,45.05,64.67,91,15,6.33,few clouds,MG
617,asadabad,34.7824,48.1185,61.36,26,1,3.09,clear sky,IR
618,tambun,-6.2641,107.0712,89.11,79,20,6.78,haze,ID
619,gumdag,39.2061,54.5906,71.28,75,0,10.16,clear sky,TM
620,zastron,-30.3023,27.084,29.52,81,0,5.26,clear sky,ZA
621,ahuimanu,21.4447,-157.8378,83.75,65,58,13.53,broken clouds,US
622,stromness,58.965,-3.296,52.05,87,66,23.42,broken clouds,GB
623,doka,13.5167,35.7667,78.31,54,14,8.05,few clouds,SD
624,mao,39.8885,4.2658,66.76,94,0,8.05,clear sky,ES
625,ambon,-3.6954,128.1814,84.34,70,40,12.8,scattered clouds,ID
626,port-cartier,50.0334,-66.8654,51.75,96,100,7.31,overcast clouds,CA
627,yermolayevo,52.7167,55.8,57.22,81,100,16.28,overcast clouds,RU
628,pemangkat,1.1667,108.9667,84.97,74,100,3.06,overcast clouds,ID
629,erenhot,43.6475,111.9767,57.85,43,21,14.47,few clouds,CN
630,jalpan,21.2333,-99.4833,71.29,88,100,1.72,overcast clouds,MX
631,abaza,52.655,90.0928,74.66,51,99,3.24,overcast clouds,RU
632,grenada,37.1882,-3.6067,65.1,75,0,1.99,clear sky,ES
633,la grande,45.3246,-118.0877,85.37,68,5,4.27,clear sky,US
634,mankono,8.0586,-6.1897,75.04,83,91,4.79,overcast clouds,CI
635,sao filipe,14.8961,-24.4956,73.04,80,23,13.53,few clouds,CV
636,novyy urgal,51.0736,132.5642,53.01,94,100,4.29,overcast clouds,RU
637,sigulda,57.1519,24.8647,54.32,91,5,3.58,clear sky,LV
638,acapulco,16.8634,-99.8901,84.02,74,75,2.01,broken clouds,MX
639,samfya,-11.3649,29.5565,61.2,83,29,6.64,scattered clouds,ZM
640,kenai,60.5544,-151.2583,50.14,67,84,7.45,broken clouds,US
641,zakopane,49.299,19.9489,39.06,84,7,2.66,clear sky,PL
642,vanderhoof,54.0166,-124.0198,68.22,33,78,9.71,broken clouds,CA
643,xuanhua,40.6103,115.0447,66.04,40,7,22.77,clear sky,CN
644,bayir,37.2687,28.2167,55.92,69,12,5.01,few clouds,TR
645,emerald,-23.5333,148.1667,69.35,58,100,7.29,overcast clouds,AU
646,envira,-7.3,-70.2167,76.86,76,100,0.89,overcast clouds,BR
647,port keats,-14.25,129.55,88.77,43,16,7.56,few clouds,AU
648,gainesville,29.6516,-82.3248,75.54,92,20,3.44,light rain,US
649,sawtell,-30.3833,153.1,69.82,49,0,16.11,clear sky,AU
650,mutare,-18.9707,32.6709,46.94,89,1,3.38,clear sky,ZW
651,sabzevar,36.2126,57.6819,85.59,16,0,7.9,clear sky,IR
652,santa ana,33.7456,-117.8678,84.79,74,20,1.99,few clouds,US
653,acatlan,20.15,-98.45,57.72,93,98,2.35,overcast clouds,MX
654,myski,53.709,87.8014,65.3,92,100,3.49,light rain,RU
655,tual,-5.6667,132.75,81.86,76,48,18.52,scattered clouds,ID
656,ugoofaaru,5.6667,73.0,82.78,70,100,17.6,overcast clouds,MV
